{
"type": "FeatureCollection",
"name": "Estaciones",
"crs": { "type": "name", "properties": { "name": "urn:ogc:def:crs:OGC:1.3:CRS84" } },
"features": [
{ "type": "Feature", "properties": { "Name": "Aguaraycito", "description": "1", "caudales": null }, "geometry": { "type": "Point", "coordinates": [ -63.4123, -21.3904, 0.0 ] } },
{ "type": "Feature", "properties": { "Name": "Ajtara", "description": "1", "caudales": null }, "geometry": { "type": "Point", "coordinates": [ -65.960503, -19.0692, 0.0 ] } },
{ "type": "Feature", "properties": { "Name": "Alcantari Aeropuerto", "description": "1", "caudales": null }, "geometry": { "type": "Point", "coordinates": [ -65.148056, -19.2386, 0.0 ] } },
{ "type": "Feature", "properties": { "Name": "Algarrobilla", "description": "1", "caudales": null }, "geometry": { "type": "Point", "coordinates": [ -63.293701, -21.8633, 0.0 ] } },
{ "type": "Feature", "properties": { "Name": "Alto de Cajas", "description": "1", "caudales": null }, "geometry": { "type": "Point", "coordinates": [ -64.469597, -21.3062, 0.0 ] } },
{ "type": "Feature", "properties": { "Name": "Arpaja Alta (Incahuasi)", "description": "1", "caudales": null }, "geometry": { "type": "Point", "coordinates": [ -64.948601, -20.6753, 0.0 ] } },
{ "type": "Feature", "properties": { "Name": "Atocha", "description": "1", "caudales": null }, "geometry": { "type": "Point", "coordinates": [ -66.242699, -20.9362, 0.0 ] } },
{ "type": "Feature", "properties": { "Name": "Azurduy", "description": "1", "caudales": null }, "geometry": { "type": "Point", "coordinates": [ -64.4235, -20.105, 0.0 ] } },
{ "type": "Feature", "properties": { "Name": "Berety", "description": "1", "caudales": null }, "geometry": { "type": "Point", "coordinates": [ -64.0382, -20.445, 0.0 ] } },
{ "type": "Feature", "properties": { "Name": "Cachimayu", "description": "1", "caudales": null }, "geometry": { "type": "Point", "coordinates": [ -65.292603, -19.1472, 0.0 ] } },
{ "type": "Feature", "properties": { "Name": "Caiza-D", "description": "1", "caudales": null }, "geometry": { "type": "Point", "coordinates": [ -65.0, -20.0, 0.0 ] } },
{ "type": "Feature", "properties": { "Name": "Campanario", "description": "1", "caudales": null }, "geometry": { "type": "Point", "coordinates": [ -64.975601, -21.5119, 0.0 ] } },
{ "type": "Feature", "properties": { "Name": "Carrizal", "description": "1", "caudales": null }, "geometry": { "type": "Point", "coordinates": [ -65.239601, -21.4387, 0.0 ] } },
{ "type": "Feature", "properties": { "Name": "Casin", "description": "1", "caudales": null }, "geometry": { "type": "Point", "coordinates": [ -65.21666, -19.3667, 0.0 ] } },
{ "type": "Feature", "properties": { "Name": "Chaqui", "description": "1", "caudales": null }, "geometry": { "type": "Point", "coordinates": [ -65.566704, -19.5883, 0.0 ] } },
{ "type": "Feature", "properties": { "Name": "Chaquilla", "description": "1", "caudales": null }, "geometry": { "type": "Point", "coordinates": [ -66.144402, -19.8571, 0.0 ] } },
{ "type": "Feature", "properties": { "Name": "Chilcara", "description": "1", "caudales": null }, "geometry": { "type": "Point", "coordinates": [ -65.051697, -21.0073, 0.0 ] } },
{ "type": "Feature", "properties": { "Name": "Chinoli", "description": "1", "caudales": null }, "geometry": { "type": "Point", "coordinates": [ -65.383301, -19.6667, 0.0 ] } },
{ "type": "Feature", "properties": { "Name": "Chuquiago", "description": "1", "caudales": 1 }, "geometry": { "type": "Point", "coordinates": [ -65.647797, -21.5615, 0.0 ] } },
{ "type": "Feature", "properties": { "Name": "Colavi - Canutillos", "description": "1", "caudales": null }, "geometry": { "type": "Point", "coordinates": [ -65.538002, -19.3174, 0.0 ] } },
{ "type": "Feature", "properties": { "Name": "Cotagaita", "description": "1", "caudales": 1 }, "geometry": { "type": "Point", "coordinates": [ -65.645401, -20.82, 0.0 ] } },
{ "type": "Feature", "properties": { "Name": "Crevaux", "description": "1", "caudales": null }, "geometry": { "type": "Point", "coordinates": [ -62.917301, -21.8249, 0.0 ] } },
{ "type": "Feature", "properties": { "Name": "Cruce Ventilla", "description": "1", "caudales": null }, "geometry": { "type": "Point", "coordinates": [ -66.211197, -19.0661, 0.0 ] } },
{ "type": "Feature", "properties": { "Name": "Culpina", "description": "1", "caudales": null }, "geometry": { "type": "Point", "coordinates": [ -64.942757, -20.8273, 0.0 ] } },
{ "type": "Feature", "properties": { "Name": "El Huayco", "description": "1", "caudales": null }, "geometry": { "type": "Point", "coordinates": [ -64.253899, -21.293, 0.0 ] } },
{ "type": "Feature", "properties": { "Name": "El Puente", "description": "1", "caudales": 1 }, "geometry": { "type": "Point", "coordinates": [ -65.209099, -21.2396, 0.0 ] } },
{ "type": "Feature", "properties": { "Name": "El Reloj", "description": "1", "caudales": null }, "geometry": { "type": "Point", "coordinates": [ -65.243056, -19.08056, 0.0 ] } },
{ "type": "Feature", "properties": { "Name": "El Salvador", "description": "1", "caudales": null }, "geometry": { "type": "Point", "coordinates": [ -63.175301, -20.6179, 0.0 ] } },
{ "type": "Feature", "properties": { "Name": "Entre Rios", "description": "1", "caudales": null }, "geometry": { "type": "Point", "coordinates": [ -64.168808, -21.5038, 0.0 ] } },
{ "type": "Feature", "properties": { "Name": "Huacareta", "description": "1", "caudales": null }, "geometry": { "type": "Point", "coordinates": [ -63.998402, -20.3696, 0.0 ] } },
{ "type": "Feature", "properties": { "Name": "Icla", "description": "1", "caudales": null }, "geometry": { "type": "Point", "coordinates": [ -64.788902, -19.3657, 0.0 ] } },
{ "type": "Feature", "properties": { "Name": "Incahuasi", "description": "1", "caudales": null }, "geometry": { "type": "Point", "coordinates": [ -64.900002, -20.8, 0.0 ] } },
{ "type": "Feature", "properties": { "Name": "Itau", "description": "1", "caudales": null }, "geometry": { "type": "Point", "coordinates": [ -63.868679, -21.7041, 0.0 ] } },
{ "type": "Feature", "properties": { "Name": "Killpani", "description": "1", "caudales": null }, "geometry": { "type": "Point", "coordinates": [ -66.343498, -19.775, 0.0 ] } },
{ "type": "Feature", "properties": { "Name": "La Angostura", "description": "0", "caudales": null }, "geometry": { "type": "Point", "coordinates": [ -65.706802, -21.5043, 0.0 ] } },
{ "type": "Feature", "properties": { "Name": "La Barranca", "description": "1", "caudales": null }, "geometry": { "type": "Point", "coordinates": [ -65.300003, -19.0917, 0.0 ] } },
{ "type": "Feature", "properties": { "Name": "La Mendoza", "description": "1", "caudales": null }, "geometry": { "type": "Point", "coordinates": [ -64.957497, -19.3515, 0.0 ] } },
{ "type": "Feature", "properties": { "Name": "La Punilla", "description": "1", "caudales": null }, "geometry": { "type": "Point", "coordinates": [ -65.304443, -18.9833, 0.0 ] } },
{ "type": "Feature", "properties": { "Name": "La Quiaca", "description": "1", "caudales": null }, "geometry": { "type": "Point", "coordinates": [ -65.599998, -22.1167, 0.0 ] } },
{ "type": "Feature", "properties": { "Name": "La Torre", "description": "1", "caudales": null }, "geometry": { "type": "Point", "coordinates": [ -65.297798, -21.1991, 0.0 ] } },
{ "type": "Feature", "properties": { "Name": "Lago Toro", "description": "1", "caudales": null }, "geometry": { "type": "Point", "coordinates": [ -66.429604, -19.6876, 0.0 ] } },
{ "type": "Feature", "properties": { "Name": "Las Carreras", "description": "1", "caudales": null }, "geometry": { "type": "Point", "coordinates": [ -65.208801, -21.2091, 0.0 ] } },
{ "type": "Feature", "properties": { "Name": "León Cancha", "description": "1", "caudales": null }, "geometry": { "type": "Point", "coordinates": [ -64.713699, -21.1752, 0.0 ] } },
{ "type": "Feature", "properties": { "Name": "Machareti", "description": "1", "caudales": null }, "geometry": { "type": "Point", "coordinates": [ -63.3657, -20.8124, 0.0 ] } },
{ "type": "Feature", "properties": { "Name": "Machigua", "description": "1", "caudales": null }, "geometry": { "type": "Point", "coordinates": [ -64.117996, -21.0302, 0.0 ] } },
{ "type": "Feature", "properties": { "Name": "Mision La Paz", "description": "1", "caudales": null }, "geometry": { "type": "Point", "coordinates": [ -62.523201, -22.3772, 0.0 ] } },
{ "type": "Feature", "properties": { "Name": "Molino Pampa", "description": "1", "caudales": null }, "geometry": { "type": "Point", "coordinates": [ -65.337799, -20.0697, 0.0 ] } },
{ "type": "Feature", "properties": { "Name": "Mosojllasta", "description": "1", "caudales": null }, "geometry": { "type": "Point", "coordinates": [ -65.647202, -20.8219, 0.0 ] } },
{ "type": "Feature", "properties": { "Name": "Muyuquiri", "description": "1", "caudales": null }, "geometry": { "type": "Point", "coordinates": [ -65.148102, -20.4977, 0.0 ] } },
{ "type": "Feature", "properties": { "Name": "Narvaez", "description": "1", "caudales": null }, "geometry": { "type": "Point", "coordinates": [ -64.278397, -21.4044, 0.0 ] } },
{ "type": "Feature", "properties": { "Name": "Ñacamiri", "description": "1", "caudales": null }, "geometry": { "type": "Point", "coordinates": [ -64.012497, -20.6422, 0.0 ] } },
{ "type": "Feature", "properties": { "Name": "Ñucchu", "description": "1", "caudales": null }, "geometry": { "type": "Point", "coordinates": [ -65.284302, -19.2053, 0.0 ] } },
{ "type": "Feature", "properties": { "Name": "Oploca", "description": "1", "caudales": null }, "geometry": { "type": "Point", "coordinates": [ -65.803398, -21.3338, 0.0 ] } },
{ "type": "Feature", "properties": { "Name": "Padcaya", "description": "1", "caudales": null }, "geometry": { "type": "Point", "coordinates": [ -64.7118, -21.8848, 0.0 ] } },
{ "type": "Feature", "properties": { "Name": "Padcoyo", "description": "1", "caudales": null }, "geometry": { "type": "Point", "coordinates": [ -65.155556, -21.2335, 0.0 ] } },
{ "type": "Feature", "properties": { "Name": "Paicho Centro", "description": "1", "caudales": null }, "geometry": { "type": "Point", "coordinates": [ -64.957397, -21.1443, 0.0 ] } },
{ "type": "Feature", "properties": { "Name": "Palca Grande", "description": "1", "caudales": 1 }, "geometry": { "type": "Point", "coordinates": [ -65.238602, -20.7385, 0.0 ] } },
{ "type": "Feature", "properties": { "Name": "Palca Higueras", "description": "1", "caudales": null }, "geometry": { "type": "Point", "coordinates": [ -65.433296, -20.6833, 0.0 ] } },
{ "type": "Feature", "properties": { "Name": "Palmar Grande", "description": "1", "caudales": null }, "geometry": { "type": "Point", "coordinates": [ -63.441601, -21.5316, 0.0 ] } },
{ "type": "Feature", "properties": { "Name": "Palo Marcado", "description": "1", "caudales": null }, "geometry": { "type": "Point", "coordinates": [ -63.1077, -21.4547, 0.0 ] } },
{ "type": "Feature", "properties": { "Name": "Palos Blancos", "description": "1", "caudales": null }, "geometry": { "type": "Point", "coordinates": [ -63.781601, -21.4152, 0.0 ] } },
{ "type": "Feature", "properties": { "Name": "Pirhuani", "description": "1", "caudales": null }, "geometry": { "type": "Point", "coordinates": [ -62.647301, -22.43, 0.0 ] } },
{ "type": "Feature", "properties": { "Name": "Potolo", "description": "1", "caudales": null }, "geometry": { "type": "Point", "coordinates": [ -65.516667, -19.019722, 0.0 ] } },
{ "type": "Feature", "properties": { "Name": "Potosi - Ciudad", "description": "1", "caudales": null }, "geometry": { "type": "Point", "coordinates": [ -65.7519, -19.587, 0.0 ] } },
{ "type": "Feature", "properties": { "Name": "Puente Aruma", "description": "1", "caudales": null }, "geometry": { "type": "Point", "coordinates": [ -64.110397, -20.9137, 0.0 ] } },
{ "type": "Feature", "properties": { "Name": "Puente Sucre", "description": "1", "caudales": null }, "geometry": { "type": "Point", "coordinates": [ -65.176598, -19.3535, 0.0 ] } },
{ "type": "Feature", "properties": { "Name": "Puente Talula", "description": "1", "caudales": null }, "geometry": { "type": "Point", "coordinates": [ -65.450462, -19.1308, 0.0 ] } },
{ "type": "Feature", "properties": { "Name": "Puerto Margarita", "description": "1", "caudales": null }, "geometry": { "type": "Point", "coordinates": [ -63.761501, -21.1907, 0.0 ] } },
{ "type": "Feature", "properties": { "Name": "Puna", "description": "1", "caudales": null }, "geometry": { "type": "Point", "coordinates": [ -65.511803, -19.7925, 0.0 ] } },
{ "type": "Feature", "properties": { "Name": "Quebrada de Cajas", "description": "1", "caudales": null }, "geometry": { "type": "Point", "coordinates": [ -64.403333, -21.160556, 0.0 ] } },
{ "type": "Feature", "properties": { "Name": "Quila Quila", "description": "1", "caudales": null }, "geometry": { "type": "Point", "coordinates": [ -65.373901, -19.113, 0.0 ] } },
{ "type": "Feature", "properties": { "Name": "Ramadas", "description": "1", "caudales": null }, "geometry": { "type": "Point", "coordinates": [ -65.633102, -21.083, 0.0 ] } },
{ "type": "Feature", "properties": { "Name": "Ravelo", "description": "1", "caudales": null }, "geometry": { "type": "Point", "coordinates": [ -65.506897, -18.7974, 0.0 ] } },
{ "type": "Feature", "properties": { "Name": "Rosario del Ingre", "description": "1", "caudales": null }, "geometry": { "type": "Point", "coordinates": [ -63.888669, -20.5837, 0.0 ] } },
{ "type": "Feature", "properties": { "Name": "Sachapera", "description": "1", "caudales": null }, "geometry": { "type": "Point", "coordinates": [ -63.5504, -21.6604, 0.0 ] } },
{ "type": "Feature", "properties": { "Name": "Saladito Centro", "description": "1", "caudales": null }, "geometry": { "type": "Point", "coordinates": [ -64.122803, -21.319, 0.0 ] } },
{ "type": "Feature", "properties": { "Name": "Samasa", "description": "1", "caudales": null }, "geometry": { "type": "Point", "coordinates": [ -65.664001, -19.4843, 0.0 ] } },
{ "type": "Feature", "properties": { "Name": "San Antonio de Esmoruco", "description": "1", "caudales": null }, "geometry": { "type": "Point", "coordinates": [ -66.519444, -21.951667, 0.0 ] } },
{ "type": "Feature", "properties": { "Name": "San Jose de Pampa Grande", "description": "1", "caudales": null }, "geometry": { "type": "Point", "coordinates": [ -65.816246, -21.6844, 0.0 ] } },
{ "type": "Feature", "properties": { "Name": "San Josecito", "description": "1", "caudales": null }, "geometry": { "type": "Point", "coordinates": [ -64.233803, -21.1522, 0.0 ] } },
{ "type": "Feature", "properties": { "Name": "San Lucas", "description": "1", "caudales": null }, "geometry": { "type": "Point", "coordinates": [ -65.137703, -20.0972, 0.0 ] } },
{ "type": "Feature", "properties": { "Name": "San Luis de Palqui", "description": "1", "caudales": null }, "geometry": { "type": "Point", "coordinates": [ -65.135002, -21.5578, 0.0 ] } },
{ "type": "Feature", "properties": { "Name": "San Pablo de Lipez", "description": "1", "caudales": null }, "geometry": { "type": "Point", "coordinates": [ -66.879097, -21.8697, 0.0 ] } },
{ "type": "Feature", "properties": { "Name": "San Roque", "description": "1", "caudales": null }, "geometry": { "type": "Point", "coordinates": [ -65.228203, -20.7725, 0.0 ] } },
{ "type": "Feature", "properties": { "Name": "Santa Elena", "description": "1", "caudales": null }, "geometry": { "type": "Point", "coordinates": [ -64.773804, -20.5809, 0.0 ] } },
{ "type": "Feature", "properties": { "Name": "Sucre Aero", "description": "1", "caudales": null }, "geometry": { "type": "Point", "coordinates": [ -65.288696, -19.0067, 0.0 ] } },
{ "type": "Feature", "properties": { "Name": "Sucre Ciudad", "description": "1", "caudales": null }, "geometry": { "type": "Point", "coordinates": [ -65.268501, -19.0203, 0.0 ] } },
{ "type": "Feature", "properties": { "Name": "Tacobamba", "description": "1", "caudales": null }, "geometry": { "type": "Point", "coordinates": [ -65.550003, -19.2, 0.0 ] } },
{ "type": "Feature", "properties": { "Name": "Talina", "description": "1", "caudales": null }, "geometry": { "type": "Point", "coordinates": [ -65.8255, -21.7501, 0.0 ] } },
{ "type": "Feature", "properties": { "Name": "Talula - Automatica", "description": "1", "caudales": null }, "geometry": { "type": "Point", "coordinates": [ -65.444702, -19.135, 0.0 ] } },
{ "type": "Feature", "properties": { "Name": "Tarabuco", "description": "1", "caudales": null }, "geometry": { "type": "Point", "coordinates": [ -64.917099, -19.1791, 0.0 ] } },
{ "type": "Feature", "properties": { "Name": "Tarapaya", "description": "1", "caudales": null }, "geometry": { "type": "Point", "coordinates": [ -65.7938, -19.4719, 0.0 ] } },
{ "type": "Feature", "properties": { "Name": "Tarija Aero", "description": "1", "caudales": null }, "geometry": { "type": "Point", "coordinates": [ -64.7108, -21.5463, 0.0 ] } },
{ "type": "Feature", "properties": { "Name": "Tarija SENAMHI", "description": "1", "caudales": null }, "geometry": { "type": "Point", "coordinates": [ -64.721001, -21.5427, 0.0 ] } },
{ "type": "Feature", "properties": { "Name": "Tartagal", "description": "1", "caudales": null }, "geometry": { "type": "Point", "coordinates": [ -63.490002, -22.39, 0.0 ] } },
{ "type": "Feature", "properties": { "Name": "Tarupayo", "description": "1", "caudales": null }, "geometry": { "type": "Point", "coordinates": [ -63.9548, -21.329, 0.0 ] } },
{ "type": "Feature", "properties": { "Name": "Tica Tica", "description": "1", "caudales": null }, "geometry": { "type": "Point", "coordinates": [ -66.313599, -20.1411, 0.0 ] } },
{ "type": "Feature", "properties": { "Name": "Tiguipa", "description": "1", "caudales": null }, "geometry": { "type": "Point", "coordinates": [ -63.3269, -21.0008, 0.0 ] } },
{ "type": "Feature", "properties": { "Name": "Timboy", "description": "1", "caudales": null }, "geometry": { "type": "Point", "coordinates": [ -64.066498, -21.1742, 0.0 ] } },
{ "type": "Feature", "properties": { "Name": "Tinguipaya", "description": "1", "caudales": null }, "geometry": { "type": "Point", "coordinates": [ -65.822197, -19.2237, 0.0 ] } },
{ "type": "Feature", "properties": { "Name": "Tojo", "description": "1", "caudales": null }, "geometry": { "type": "Point", "coordinates": [ -65.326401, -21.8189, 0.0 ] } },
{ "type": "Feature", "properties": { "Name": "Tumusla", "description": "1", "caudales": 1 }, "geometry": { "type": "Point", "coordinates": [ -65.6175, -20.4878, 0.0 ] } },
{ "type": "Feature", "properties": { "Name": "Tupiza", "description": "1", "caudales": null }, "geometry": { "type": "Point", "coordinates": [ -65.715302, -21.4384, 0.0 ] } },
{ "type": "Feature", "properties": { "Name": "Turuchipa", "description": "1", "caudales": null }, "geometry": { "type": "Point", "coordinates": [ -64.944397, -19.8186, 0.0 ] } },
{ "type": "Feature", "properties": { "Name": "Villa Abecia", "description": "1", "caudales": null }, "geometry": { "type": "Point", "coordinates": [ -65.230797, -20.9665, 0.0 ] } },
{ "type": "Feature", "properties": { "Name": "Villamontes", "description": "1", "caudales": null }, "geometry": { "type": "Point", "coordinates": [ -63.503391, -21.2609, 0.0 ] } },
{ "type": "Feature", "properties": { "Name": "Villamontes Aero", "description": "1", "caudales": null }, "geometry": { "type": "Point", "coordinates": [ -63.407902, -21.2537, 0.0 ] } },
{ "type": "Feature", "properties": { "Name": "Villazon", "description": "1", "caudales": null }, "geometry": { "type": "Point", "coordinates": [ -65.601898, -22.087, 0.0 ] } },
{ "type": "Feature", "properties": { "Name": "Viña Quemada", "description": "1", "caudales": null }, "geometry": { "type": "Point", "coordinates": [ -64.863403, -19.4032, 0.0 ] } },
{ "type": "Feature", "properties": { "Name": "Vitchi", "description": "1", "caudales": null }, "geometry": { "type": "Point", "coordinates": [ -65.498596, -20.205, 0.0 ] } },
{ "type": "Feature", "properties": { "Name": "Yacuiba", "description": "1", "caudales": null }, "geometry": { "type": "Point", "coordinates": [ -63.655899, -21.966, 0.0 ] } },
{ "type": "Feature", "properties": { "Name": "Yamparaez", "description": "1", "caudales": null }, "geometry": { "type": "Point", "coordinates": [ -65.114403, -19.1879, 0.0 ] } },
{ "type": "Feature", "properties": { "Name": "Yocalla", "description": "1", "caudales": null }, "geometry": { "type": "Point", "coordinates": [ -65.9077, -19.3977, 0.0 ] } },
{ "type": "Feature", "properties": { "Name": "Yotala", "description": "1", "caudales": null }, "geometry": { "type": "Point", "coordinates": [ -65.266389, -19.161667, 0.0 ] } },
{ "type": "Feature", "properties": { "Name": "Yunchara", "description": "1", "caudales": null }, "geometry": { "type": "Point", "coordinates": [ -65.228699, -21.8257, 0.0 ] } },
{ "type": "Feature", "properties": { "Name": "Yuticancha", "description": "1", "caudales": null }, "geometry": { "type": "Point", "coordinates": [ -65.0653, -21.9156, 0.0 ] } },
{ "type": "Feature", "properties": { "Name": "Zurita", "description": "1", "caudales": null }, "geometry": { "type": "Point", "coordinates": [ -65.239403, -21.7539, 0.0 ] } }
]
}
